[
  {
    "id": "01",
    "address": "LachieProject-1.jpg",
    "title": "Steps",
    "collection": "Abstraction",
    "location": "Paddington, NSW",
    "temporal": "2024-10-01"
  },
  {
    "id": "02",
    "address": "LachieProject-2.jpg",
    "title": "No Smoking",
    "collection": "Abstraction",
    "location": "Paddington, NSW",
    "temporal": "2024-10-01"
  },
  {
    "id": "03",
    "address": "LachieProject-3.jpg",
    "title": "Alleyway",
    "collection": "Paddington",
    "location": "Paddington, NSW",
    "temporal": "2024-10-01"
  },
  {
    "id": "04",
    "address": "LachieProject-4.jpg",
    "title": "The Red Door",
    "collection": "Paddington",
    "location": "Paddington, NSW",
    "temporal": "2024-10-01"
  },
  {
    "id": "05",
    "address": "LachieProject-5.jpg",
    "title": "The Red Door, Greyscale",
    "collection": "Paddington",
    "location": "Paddington, NSW",
    "temporal": "2024-10-01"
  },
  {
    "id": "06",
    "address": "LachieProject-6.jpg",
    "title": "Facades",
    "collection": "Paddington",
    "location": "Paddington, NSW",
    "temporal": "2024-10-01"
  },
  {
    "id": "07",
    "address": "LachieProject-7.jpg",
    "title": "Around the Corner, Greyscale",
    "collection": "Paddington",
    "location": "Paddington, NSW",
    "temporal": "2024-10-01"
  },
  {
    "id": "08",
    "address": "LachieProject-8.jpg",
    "title": "Around the Corner",
    "collection": "Paddington",
    "location": "Paddington, NSW",
    "temporal": "2024-10-01"
  },
  {
    "id": "09",
    "address": "LachieProject-9.jpg",
    "title": "Industrial Sails",
    "collection": "Abstraction",
    "location": "Paddington, NSW",
    "temporal": "2024-10-01"
  },
  {
    "id": 10,
    "address": "LachieProject-10.jpg",
    "title": "Slats",
    "collection": "Abstraction",
    "location": "Paddington, NSW",
    "temporal": "2024-10-01"
  },
  {
    "id": 11,
    "address": "LachieProject-11.jpg",
    "title": "Canobolas from Millthorpe",
    "collection": "Millthorpe",
    "location": "Millthorpe, NSW",
    "temporal": "2024-10-01"
  },
  {
    "id": 12,
    "address": "LachieProject-12.jpg",
    "title": "St Mark's, Millthorpe",
    "collection": "Millthorpe",
    "location": "Millthorpe, NSW",
    "temporal": "2024-10-01"
  },
  {
    "id": 13,
    "address": "LachieProject-13.jpg",
    "title": "Kensington Thumbnail",
    "collection": "Landscape",
    "location": "Kensington, NSW",
    "temporal": "2024-10-01"
  },
  {
    "id": 14,
    "address": "LachieProject-14.jpg",
    "title": "Burralow Morning Mists",
    "collection": "Landscape",
    "location": "Burralow Creek Campground, NSW",
    "temporal": "2024-10-01"
  },
  {
    "id": 15,
    "address": "LachieProject-15.jpg",
    "title": "Rock Pools",
    "collection": "Nature Close Up",
    "location": "Maroubra, NSW",
    "temporal": "2024-10-01"
  },
  {
    "id": 16,
    "address": "LachieProject-16.jpg",
    "title": "Verandah",
    "collection": "Nature Close Up",
    "location": "Millthorpe, NSW",
    "temporal": "2024-10-01"
  },
  {
    "id": 17,
    "address": "LachieProject-17.jpg",
    "title": "Oh Possum",
    "collection": "Wildlife",
    "location": "Crudine, NSW",
    "temporal": "2024-10-01"
  },
  {
    "id": 18,
    "address": "LachieProject-18.jpg",
    "title": "Lorikeet",
    "collection": "Wildlife",
    "location": "Umina Beach, NSW",
    "temporal": "2024-10-01"
  },
  {
    "id": 19,
    "address": "LachieProject-19.jpg",
    "title": "Roots System",
    "collection": "Nature Close Up",
    "location": "Muloorina Station, SA",
    "temporal": "2024-10-01"
  },
  {
    "id": 20,
    "address": "LachieProject-20.jpg",
    "title": "Mount Mac Panorama",
    "collection": "Landscape",
    "location": "Mount Macquarie, NSW",
    "temporal": "2024-10-01"
  },
  {
    "id": 21,
    "address": "LachieProject-21.jpg",
    "title": "The Truck",
    "collection": "Landscape",
    "location": "Mount Macquarie, NSW",
    "temporal": "2024-10-01"
  },
  {
    "id": 22,
    "address": "LachieProject-22.jpg",
    "title": "Carcoar Lake",
    "collection": "Landscape",
    "location": "Mount Macquarie, NSW",
    "temporal": "2024-10-01"
  },
  {
    "id": 23,
    "address": "LachieProject-23.jpg",
    "title": "Carcoar Wind Farm",
    "collection": "Landscape",
    "location": "Mount Macquarie, NSW",
    "temporal": "2024-10-01"
  },
  {
    "id": 24,
    "address": "LachieProject-24.jpg",
    "title": "Wind Farm from Mount Macquarie",
    "collection": "Landscape",
    "location": "Mount Macquarie, NSW",
    "temporal": "2024-10-01"
  },
  {
    "id": 25,
    "address": "LachieProject-25.jpg",
    "title": "Mount Macquarie Pines",
    "collection": "Landscape",
    "location": "Mount Macquarie, NSW",
    "temporal": "2024-10-01"
  },
  {
    "id": 26,
    "address": "LachieProject-26.jpg",
    "title": "Overgrown",
    "collection": "Nature Close Up",
    "location": "Mount Macquarie, NSW",
    "temporal": "2024-10-01"
  },
  {
    "id": 27,
    "address": "LachieProject-27.jpg",
    "title": "Sunset Succulent",
    "collection": "Abstraction",
    "location": "Paddington, NSW",
    "temporal": "2024-10-01"
  },
  {
    "id": 28,
    "address": "LachieProject-28.jpg",
    "title": "Lichen on Wood",
    "collection": "Abstraction",
    "location": "Millthorpe, NSW",
    "temporal": "2024-10-01"
  },
  {
    "id": 29,
    "address": "LachieProject-29.jpg",
    "title": "Park Bench, Millthorpe",
    "collection": "Landscape",
    "location": "Millthorpe, NSW",
    "temporal": "2024-10-01"
  },
  {
    "id": 30,
    "address": "LachieProject-30.jpg",
    "title": "Fortress in the Trees",
    "collection": "Nature Close Up",
    "location": "Millthorpe, NSW",
    "temporal": "2024-10-01"
  },
  {
    "id": 31,
    "address": "LachieProject-31.jpg",
    "title": "Spring Flowers, 1",
    "collection": "Nature Close Up",
    "location": "Eastlakes, NSW",
    "temporal": "2024-10-01"
  },
  {
    "id": 32,
    "address": "LachieProject-32.jpg",
    "title": "Spring Flowers, 2",
    "collection": "Nature Close Up",
    "location": "Eastlakes, NSW",
    "temporal": "2024-10-01"
  },
  {
    "id": 33,
    "address": "LachieProject-33.jpg",
    "title": "Lord of His Domain",
    "collection": "Wildlife",
    "location": "Kingsford, NSW",
    "temporal": "2024-10-01"
  },
  {
    "id": 34,
    "address": "LachieProject-34.jpg",
    "title": "The Beach House, Maroubra",
    "collection": "Architecture",
    "location": "Maroubra, NSW",
    "temporal": "2024-10-01"
  },
  {
    "id": 35,
    "address": "LachieProject-35.jpg",
    "title": "Tracks",
    "collection": "Nature Close Up",
    "location": "Maroubra, NSW",
    "temporal": "2024-10-01"
  },
  {
    "id": 36,
    "address": "LachieProject-36.jpg",
    "title": "Headland Waves",
    "collection": "Landscape",
    "location": "Maroubra, NSW",
    "temporal": "2024-10-01"
  },
  {
    "id": 37,
    "address": "LachieProject-37.jpg",
    "title": "Kensington Sunset, 1",
    "collection": "Landscape",
    "location": "Kensington, NSW",
    "temporal": "2024-10-01"
  },
  {
    "id": 38,
    "address": "LachieProject-38.jpg",
    "title": "Kensington Sunset. 2",
    "collection": "Landscape",
    "location": "Kensington, NSW",
    "temporal": "2024-10-01"
  },
  {
    "id": 39,
    "address": "LachieProject-39.jpg",
    "title": "Operatic",
    "collection": "Architecture",
    "location": "Sydney, NSW",
    "temporal": "2024-10-01"
  },
  {
    "id": 40,
    "address": "LachieProject-40.jpg",
    "title": "At the Bank, 1",
    "collection": "Millthorpe",
    "location": "Millthorpe, NSW",
    "temporal": "2024-10-01"
  },
  {
    "id": 41,
    "address": "LachieProject-41.jpg",
    "title": "Sydenham Corner",
    "collection": "Architecture",
    "location": "Sydenham, NSW",
    "temporal": "2024-10-01"
  },
  {
    "id": 42,
    "address": "LachieProject-42.jpg",
    "title": "Pollen Refinery",
    "collection": "Wildlife",
    "location": "Millthorpe, NSW",
    "temporal": "2024-10-01"
  },
  {
    "id": 43,
    "address": "LachieProject-43.jpg",
    "title": "Gurgling",
    "collection": "Nature Close Up",
    "location": "Bruinbun, NSW",
    "temporal": "2024-10-01"
  },
  {
    "id": 44,
    "address": "LachieProject-44.jpg",
    "title": "The Lookout",
    "collection": "Wildlife",
    "location": "Bruinbun, NSW",
    "temporal": "2024-10-01"
  },
  {
    "id": 45,
    "address": "LachieProject-45.jpg",
    "title": "Refiner's Fire",
    "collection": "Nature Close Up",
    "location": "Bruinbun, NSW",
    "temporal": "2024-10-01"
  },
  {
    "id": 46,
    "address": "LachieProject-46.jpg",
    "title": "Spring Flowers, 3",
    "collection": "Nature Close Up",
    "location": "Millthorpe, NSW",
    "temporal": "2024-10-01"
  },
  {
    "id": 47,
    "address": "LachieProject-47.jpg",
    "title": "Back to School",
    "collection": "Millthorpe",
    "location": "Millthorpe, NSW",
    "temporal": "2024-10-01"
  },
  {
    "id": 48,
    "address": "LachieProject-48.jpg",
    "title": "Cellar Door",
    "collection": "Millthorpe",
    "location": "Millthorpe, NSW",
    "temporal": "2024-10-01"
  },
  {
    "id": 49,
    "address": "LachieProject-49.jpg",
    "title": "Overthrown",
    "collection": "Millthorpe",
    "location": "Millthorpe, NSW",
    "temporal": "2024-10-01"
  },
  {
    "id": 50,
    "address": "LachieProject-50.jpg",
    "title": "St John's, Maroubra",
    "collection": "Architecture",
    "location": "Maroubra, NSW",
    "temporal": "2024-10-01"
  },
  {
    "id": 51,
    "address": "LachieProject-51.jpg",
    "title": "Preening in Private",
    "collection": "Wildlife",
    "location": "Millthorpe, NSW",
    "temporal": "2024-10-01"
  },
  {
    "id": 52,
    "address": "LachieProject-52.jpg",
    "title": "At the Bank, 2",
    "collection": "Millthorpe",
    "location": "Millthorpe, NSW",
    "temporal": "2024-10-01"
  },
  {
    "id": 53,
    "address": "LachieProject-53.jpg",
    "title": "The Kingsford Towers",
    "collection": "Architecture",
    "location": "Kingsford, NSW",
    "temporal": "2024-10-01"
  },
  {
    "id": 54,
    "address": "LachieProject-54.jpg",
    "title": "Over the Domain",
    "collection": "Wildlife",
    "location": "Millthorpe, NSW",
    "temporal": "2024-10-01"
  }
]